[
  {
    "id": 1,
    "title": "Mka City",
    "category": 1,
    "marker_image": "assets/img/mka.png",
    "url": "detail-01.html",
    "address": "Ortachala 23rd Tbilisi",
    "latitude": "41.681634",
    "longitude": "44.828463",   
    "area": 356,
    "bedrooms": 2,
    "bathrooms": 1,
    "rooms": 1,
    "f__air_condition": 1,
    "f__microwave": 1
  },
  {
    "id": 2,
    "title": "OTI Digomi 2B",
    "price": 89000,
    "category": 1,
    "marker_image": "assets/img/digomi2b.png",
    "url": "detail-01.html",
    "address": "Dighomi 23B, Tbilisi Georgia ",
    "latitude": "41.791692",
    "longitude": "44.763081",
    "area": 720,
    "bedrooms": 1,
    "bathrooms": 3,
    "rooms": 5,
    "f__microwave": 1
  },
  {
    "id": 3,
    "title": "OTI Tower 31",
    "price": 45900,
    "category": 2,
    "marker_image": "assets/img/img-item-thumb-03.jpg",
    "url": "detail-01.html",
    "address": "593 Grove Place, Crawfordsville",
    "latitude": "41.633935",
    "longitude": " 41.616066",
    "area": 1500,
    "bedrooms": 2,
    "bathrooms": 3,
    "rooms": 8,
    "f__terrace": 1
  },
  {
    "id": 4,
    "title": "Batumi 29 ",
    "price": 860000,
    "category": "",
    "marker_image": "assets/img/img-item-thumb-05.jpg",
    "url": "detail-01.html",
    "address": "Batumi Coastline",
    "latitude": "41.636241",
    "longitude": "41.608162",
    "area": 288,
    "bedrooms": 2,
    "bathrooms": 1,
    "rooms": 1,
    "ribbon": "<i class='far fa-smile' title='Great Offer'></i>"
  },
  {
    "id": 5,
    "title": "White Cubes Resort",
    "price": 435000,
    "category": 2,
    "status": 1,
    "marker_image": "assets/img/img-item-thumb-05.jpg",
    "url": "detail-01.html",
    "address": "189 Cumberland Walk, Fontanelle, Utah, 6343",
    "area": 600,
    "bedrooms": 3,
    "bathrooms": 2,
    "rooms": 1,
    "latitude": "41.751371",
    "longitude": "43.533555"
  },
  {
    "id": 6,
    "title": "OTI Tower 31",
    "price": 85900,
    "additional_info": "",
    "marker_image": "assets/img/img-item-thumb-06.png",
    "url": "detail-01.html",
    "address": "180 Grant Avenue, Onton",
    "ribbon": "<i class='fa fa-thumbs-up'></i>",
    "area": 1850,
    "bedrooms": 5,
    "bathrooms": 3,
    "rooms": 10,
    "latitude": "41.792322",
    "longitude": "44.755856"
  },
  {
    "id": 7,
    "title": "River Apartments",
    "price": 127000,
    "marker_image": "assets/img/img-item-thumb-07.jpg",
    "url": "detail-01.html",
    "address": "228 Hinckley Place",
    "area": 580,
    "bedrooms": 4,
    "bathrooms": 2,
    "rooms": 8,
    "latitude": "41.845544",
    "longitude": "43.382075"
  },
  
  {
    "id": 9,
    "title": "Kutaisi Hills",
    "price": 41800,
    "marker_image": "assets/img/img-item-thumb-09.jpg",
    "url": "detail-02.html",
    "address": "17th tsagerli st",
    "ribbon_corner": "New Listing",
    "area": 150,
    "bedrooms": 4,
    "bathrooms": 2,
    "rooms": 3,
    "latitude": "42.602406",
    "longitude": "42.924716"
  },
  {
    "id": 9,
    "title": "Kutaisi Hills",
    "price": 41800,
    "marker_image": "assets/img/img-item-thumb-09.jpg",
    "url": "detail-02.html",
    "address": "17th tsagerli st",
    "ribbon_corner": "New Listing",
    "area": 150,
    "bedrooms": 4,
    "bathrooms": 2,
    "rooms": 3,
    "latitude": "42.602406",
    "longitude": "42.924716"
  },
  {
    "id": 10,
    "title": "Asureti Paradise",
    "status": 2,
    "price": 240,
    "marker_image": "assets/img/img-item-thumb-10.jpg",
    "url": "detail-03.html",
    "address": "230 High Street, Cumminsville",
    "latitude": "43.176547",
    "longitude": "41.385945",
    "area": 190,
    "bedrooms": 4,
    "bathrooms": 2,
    "rooms": 3,
    "badge": "Rent"
  },
  {
    "id": 10,
    "title": "Asuretin Paradise",
    "status": 2,
    "price": 240,
    "marker_image": "assets/img/img-item-thumb-10.jpg",
    "url": "detail-03.html",
    "address": "230 High Street, Cumminsville",
    "latitude": "43.176547",
    "longitude": "41.385945",
    "area": 190,
    "bedrooms": 4,
    "bathrooms": 2,
    "rooms": 3,
    "badge": "Rent"
  },
  
  
  {
    "id": 12,
    "title": "Coworking Offices",
    "price": 30,
    "status": 2,
    "marker_image": "assets/img/img-item-thumb-12.jpg",
    "url": "detail-02.html",
    "address": "373 Erskine Loop, Soham, Montana",
    "latitude": "40.65096833301533",
    "longitude": "-73.61100116442873",
    "badge": "Rent",
    "area": 980,
    "bedrooms": 4,
    "bathrooms": 2,
    "rooms": 10,
    "ribbon": "<i class='fa fa-thumbs-up'></i>"
  },
  {
    "id": 13,
    "title": "Apartments Center Complex",
    "price": 89000,
    "marker_image": "assets/img/img-item-thumb-13.jpg",
    "url": "detail-02.html",
    "address": "674 Wyona Street, Otranto",
    "area": 301,
    "bedrooms": 4,
    "bathrooms": 2,
    "rooms": 3,
    "latitude": "40.65241954519077",
    "longitude": "-73.27795745324536"
  },
  {
    "id": 14,
    "title": "Shared Office",
    "price": 180,
    "marker_image": "assets/img/img-item-thumb-14.jpg",
    "url": "detail-01.html",
    "address": "827 Jodie Court, Osmond",
    "ribbon": 1,
    "area": 870,
    "bedrooms": 4,
    "bathrooms": 2,
    "rooms": 12,
    "latitude": "40.67818255029871",
    "longitude": "-73.44946780871584"
  },
  {
    "id": 15,
    "title": "Newly Redesigned Studio",
    "price": 45900,
    "marker_image": "assets/img/img-item-thumb-15.jpg",
    "url": "detail-01.html",
    "address": "398 McKibbin Street, Oneida",
    "ribbon": "<i class='fa fa-thumbs-up'></i>",
    "latitude": "40.68104655877173",
    "longitude": "-73.45513263415529"
  },
  {
    "id": 16,
    "title": "Residental House on Quite Place",
    "price": 185900,
    "ribbon_corner": "50% Off",
    "marker_image": "assets/img/img-item-thumb-16.jpg",
    "url": "detail-01.html",
    "address": "605 Dennett Place, Tooleville",
    "area": 405,
    "bedrooms": 4,
    "bathrooms": 2,
    "rooms": 10,
    "latitude": "40.70739786733858",
    "longitude": "-73.53767378821803"
  },
  {
    "id": 17,
    "title": "Spacey Apartment In Town Center",
    "price": 153000,
    "marker_image": "assets/img/img-item-thumb-17.jpg",
    "url": "detail-02.html",
    "address": "569 Harrison Place, Lafferty",
    "area": 210,
    "bedrooms": 3,
    "bathrooms": 2,
    "rooms": 3,
    "latitude": "40.70707735514919",
    "longitude": "-73.54302325915529"
  },
  {
    "id": 18,
    "title": "Centuria Luxury Villa",
    "price": 48000,
    "marker_image": "assets/img/img-item-thumb-18.jpg",
    "url": "detail-03.html",
    "address": "745 Louis Place, Staples, California",
    "area": 678,
    "bedrooms": 3,
    "bathrooms": 2,
    "rooms": 3,
    "latitude": "40.70499526570847",
    "longitude": "-73.53667178820803"
  },
  {
    "id": 19,
    "title": "House in the Forest",
    "price": 249000,
    "marker_image": "assets/img/img-item-thumb-19.jpg",
    "url": "detail-01.html",
    "address": "393 Hooper Street, Rote",
    "area": 150,
    "bedrooms": 1,
    "bathrooms": 1,
    "rooms": 3,
    "latitude": "40.71670617207652",
    "longitude": "-73.51229587268068"
  },
  {
    "id": 20,
    "title": "Forest Cabin",
    "price": 119000,
    "marker_image": "assets/img/img-item-thumb-20.jpg",
    "url": "detail-03.html",
    "address": "714 Fairview Place, Allentown",
    "area": 210,
    "bedrooms": 3,
    "bathrooms": 2,
    "rooms": 3,
    "latitude": "40.77288984931648",
    "longitude": "-73.39745441149904"
  },
  {
    "id": 21,
    "title": "Great Stone Residence",
    "price": 800000,
    "marker_image": "assets/img/img-item-thumb-21.jpg",
    "url": "detail-03.html",
    "address": "Philadelphia, PA 19108",
    "area": 800,
    "bedrooms": 3,
    "bathrooms": 2,
    "rooms": 8,
    "latitude": "40.706817097528884",
    "longitude": "-73.58370700549318"
  },
  {
    "id": 22,
    "title": "Grocery Store",
    "price": 183000,
    "marker_image": "assets/img/img-item-thumb-22.jpg",
    "url": "detail-03.html",
    "address": "Hanover, MD 21076",
    "area": 210,
    "bedrooms": 3,
    "bathrooms": 2,
    "rooms": 3,
    "latitude": "40.72321134118185",
    "longitude": "-73.64447513293459"
  },
  {
    "id": 23,
    "title": "Wood House",
    "price": 202000,
    "marker_image": "assets/img/img-item-thumb-23.jpg",
    "url": "detail-01.html",
    "address": "Fayetteville, NC 28306",
    "area": 210,
    "bedrooms": 3,
    "bathrooms": 2,
    "rooms": 3,
    "latitude": "40.74181261562849",
    "longitude": "-73.562420994751"
  },
  {
    "id": 24,
    "title": "Modern Apartment",
    "price": 79800,
    "marker_image": "assets/img/img-item-thumb-24.jpg",
    "url": "detail-02.html",
    "address": "Aitkin, MN 56431",
    "area": 210,
    "bedrooms": 3,
    "bathrooms": 2,
    "rooms": 3,
    "latitude": "40.75234669471232",
    "longitude": "-73.50594440173342"
  }, 


  {
    "id": 26,
    "title": "Industrial Building",
    "price": 356000,
    "url": "detail-01.html",
    "address": "Los Alamos, NM 87544",
    "area": 740,
    "bedrooms": 3,
    "bathrooms": 2,
    "rooms": 12,
    "latitude": "40.79667556663265",
    "longitude": "-73.47985187243654"
  }
]